id,name,country,state,latitude,longitude,priority_level
1,Punjab Central,India,Punjab,30.9010,75.8573,3
2,Haryana Belt,India,Haryana,29.0588,76.0856,2
3,Uttar Plains,India,Uttar Pradesh,26.8467,80.9462,3
4,Rajasthan East,India,Rajasthan,26.9124,75.7873,2
5,Bihar North,India,Bihar,25.5941,85.1376,2

