id,name,country,state,latitude,longitude,priority_level
1,Punjab Plains,India,Punjab,31.1471,75.3412,3
2,Maharashtra Belt,India,Maharashtra,19.7515,75.7139,2
3,Karnataka South,India,Karnataka,12.9716,77.5946,2
4,Rajasthan East,India,Rajasthan,26.9124,75.7873,3
5,Bihar North,India,Bihar,25.5941,85.1376,3
